[{"id":"1","longitude":105.8121757540069,"latitude":21.036063887121593,"address":"","distanceToTarget":4894.837,"clusterDataList":[{"id":"2","name":"Phạm Thu Hà","address":"Số nhà 10, ngõ 172,Pháo Đài Láng, Đống Đa, Hà Nội","longitude":105.806701408824,"latitude":21.02216340050488,"distance":1646.785},{"id":"3","name":"Trần Thanh Tùng","address":"Số nhà 17, ngõ 3, Kim Mã, Ba Đình, Hà Nội","longitude":105.822305878556,"latitude":21.033295824229658,"distance":1095.486},{"id":"8","name":"Đỗ Minh Hiền","address":"Số nhà 49, ngõ 12, Đặng Thai Mai, Tây Hồ, Hà Nội","longitude":105.827454503227,"latitude":21.049874313087408,"distance":2207.354},{"id":"17","name":"Thu Hường Trần","address":"3 Ngõ 12 Nguyễn Văn Ngọc, Giảng Võ, Ba Đình, Hà Nội","longitude":105.81251213,"latitude":21.033303266055118,"distance":308.946},{"id":"21","name":"Văn Thị Hiền","address":"41/320 Đường Láng, Láng Thượng, Đống Đa, Hà Nội","longitude":105.80130106854,"latitude":21.031639642224583,"distance":1231.196},{"id":"33","name":"Phạm Thị Hoa","address":"11 Tô Ngọc Vân","longitude":105.82527436822804,"latitude":21.068137741691334,"distance":3816.703},{"id":"76","name":"Phạm Thu Hà","address":"Số nhà 10, ngõ 172, Pháo Đài Láng, Đống Đa, Hà Nội","longitude":105.8035575,"latitude":21.0231165,"distance":1694.928},{"id":"101","name":"Hoàng Văn Anh","address":"Số nhà 16 ngõ 1050 Láng, Láng Thượng, Đống Đa, Hà Nội","longitude":105.801572527658,"latitude":21.0338395623356,"distance":1127.909},{"id":"103","name":"Trần Văn Đức","address":"Số 29, ngõ 2B, phố Giảng Võ, Đống Đa, Hà Nội","longitude":105.808902401029,"latitude":21.02920473396577,"distance":834.945}]},{"id":"2","longitude":105.8451243974334,"latitude":21.02702088803344,"address":"","distanceToTarget":2444.949,"clusterDataList":[{"id":"6","name":"Vũ Thị Anh","address":"Số nhà 56, đường Trần Hưng Đạo, Hoàn Kiếm, Hà Nội","longitude":105.844420055303,"latitude":21.024991980344527,"distance":237.153},{"id":"31","name":"Đỗ Ngọc Anh","address":"12 Lê Hồng Phong","longitude":105.8342964,"latitude":21.0332724,"distance":1321.434},{"id":"38","name":"Nguyễn Thị Minh Khai","address":"10 Trần Hưng Đạo, Hoàn Kiếm, Hà Nội","longitude":105.849686930461,"latitude":21.02869681412227,"distance":508.894},{"id":"42","name":"Vũ Minh Ngọc","address":"30 Lê Duẩn, Hoàn Kiếm, Hà Nội","longitude":105.848099237657,"latitude":21.024447797672885,"distance":420.947},{"id":"43","name":"Đỗ Xuân Hương","address":"25 Hàng Bài, Hoàn Kiếm, Hà Nội","longitude":105.849119363746,"latitude":21.023695448027535,"distance":555.573}]},{"id":"3","longitude":105.8715338741825,"latitude":21.03868077412824,"address":"","distanceToTarget":4606.879,"clusterDataList":[{"id":"27","name":"Đỗ Thanh Tùng","address":"9 Ngõ Huyện, Hàng Trống, Hoàn Kiếm, Hà Nội","longitude":105.850373437162,"latitude":21.03015035663322,"distance":2392.234},{"id":"41","name":"Lê Thị Hương","address":"20 Nguyễn Văn Cừ, Long Biên, Hà Nội","longitude":105.892694311203,"latitude":21.04721119162326,"distance":2392.118}]},{"id":"4","longitude":105.85039957545966,"latitude":21.01169061128198,"address":"","distanceToTarget":890.131,"clusterDataList":[{"id":"14","name":"Ngọc Minh Đặng","address":"19 Ngõ 93 Lò Đúc, Hai Bà Trưng, Hà Nội","longitude":105.856252953,"latitude":21.00797749264913,"distance":734.603},{"id":"23","name":"Lê Thị Hoa","address":"22 Nguyễn Trường Tộ, Thanh Nghị, Hai Bà Trưng, Hà Nội","longitude":105.84714346008,"latitude":21.01087811999473,"distance":349.856},{"id":"44","name":"Nguyễn Thị Trà My","address":"17 Phố Huế, Hai Bà Trưng, Hà Nội","longitude":105.847802313299,"latitude":21.016216221202086,"distance":570.891}]},{"id":"5","longitude":105.79014182236634,"latitude":21.03753651267934,"address":"","distanceToTarget":6799.19,"clusterDataList":[{"id":"4","name":"Nguyễn Thị Thanh","address":"Số nhà 102, đường Cầu Giấy, Cầu Giấy, Hà Nội","longitude":105.791127076644,"latitude":21.035279463982057,"distance":271.004},{"id":"5","name":"Trần Văn Đông","address":"Số nhà 87, đường Nguyễn Khánh Toàn, Cầu Giấy, Hà Nội","longitude":105.795255224729,"latitude":21.043626214736467,"distance":860.314},{"id":"12","name":"Đình Duy Nguyễn","address":"29 Võ Chí Công, Xuân La, Tây Hồ, Hà Nội","longitude":105.8029101701,"latitude":21.06745471409359,"distance":3580.911},{"id":"16","name":"Thịnh Duy Võ","address":"35 Ngõ 118 Trần Bình, Mai Dịch, Cầu Giấy, Hà Nội","longitude":105.7873040835,"latitude":21.0375533688712,"distance":294.516},{"id":"19","name":"Văn Hiển Nguyễn","address":"37B1 Nguyễn Phong Sắc, Cầu Giấy, Hà Nội","longitude":105.793096151,"latitude":21.03733321907321,"distance":307.442},{"id":"24","name":"Phạm Thanh Huyền","address":"29 Hồ Tùng Mậu, Mai Dịch, Cầu Giấy, Hà Nội","longitude":105.787732017547,"latitude":21.05149845468419,"distance":1572.511},{"id":"26","name":"Hoàng Minh Hải","address":"76 Trần Thái Tông, Dịch Vọng, Cầu Giấy, Hà Nội","longitude":105.793809016759,"latitude":21.031071523703844,"distance":813.411},{"id":"29","name":"Võ Thị Hương","address":"334 Cầu Giấy","longitude":105.79001216969687,"latitude":21.03635774477897,"distance":131.762},{"id":"45","name":"Phạm Thị Thu Trang","address":"21 Trần Duy Hưng, Cầu Giấy, Hà Nội","longitude":105.790475064879,"latitude":21.014785029484003,"distance":2530.086},{"id":"48","name":"Trần Bảo Long","address":"73 Trần Hữu Dực, phường Nam Từ Liêm, quận Nam Từ Liêm, Hà Nội","longitude":105.7621843,"latitude":21.0141905,"distance":3893.476},{"id":"51","name":"Trần Văn Đức","address":"126 Nguyễn Khang, phường Yên Hòa, quận Cầu Giấy, Hà Nội","longitude":105.7992653,"latitude":21.0305744,"distance":1223.072},{"id":"57","name":"Nguyễn Văn Long","address":"Số 28, Ngõ 107, Hoàng Quốc Việt, Cầu Giấy, Hà Nội","longitude":105.787033945881,"latitude":21.04737835511054,"distance":1140.903},{"id":"60","name":"Phạm Thị Tươi","address":"Số 4, Ngách 33, Ngõ 91, Nguyễn Khang, Cầu Giấy, Hà Nội","longitude":105.78847887002,"latitude":21.032763945746147,"distance":558.045},{"id":"98","name":"Đặng Thị Mai Phương","address":"Số 18, ngõ 181, Xuân Thủy, Cầu Giấy, Hà Nội","longitude":105.793302122373,"latitude":21.045644243246475,"distance":959.344}]},{"id":"6","longitude":105.84856933858464,"latitude":20.990093250522193,"address":"","distanceToTarget":1689.563,"clusterDataList":[{"id":"13","name":"Minh Châu Hồ","address":"23B Ngõ 3/54, Tổ 11, Phố Vọng, Hai Bà Trưng, Hà Nội","longitude":105.843757166,"latitude":20.998898210732417,"distance":1099.154},{"id":"20","name":"Bạch Trung Ngân","address":"15 Đàm Quang Trung, Thanh Lương, Hai Bà Trưng, Hà Nội","longitude":105.851051968269,"latitude":21.005207223010316,"distance":1700.244},{"id":"25","name":"Nguyễn Văn Tuấn","address":"7 Nguyễn Văn Ngọc, Minh Khai, Hai Bà Trưng, Hà Nội","longitude":105.857375507832,"latitude":20.99482348037507,"distance":1054.719},{"id":"37","name":"Hoàng Thị Hồng","address":"33 Đại La, phường Trương Định","longitude":105.85419,"latitude":20.998676,"distance":1118.602},{"id":"46","name":"Lê Thị Hồng Nhung","address":"12 Bạch Mai, Hai Bà Trưng, Hà Nội","longitude":105.852290974317,"latitude":21.00402517434545,"distance":1596.609},{"id":"47","name":"Nguyễn Hoàng Thảo","address":"7 Ngõ Trại Cá, phường Vĩnh Hưng, quận Hoàng Mai, Hà Nội","longitude":105.8658316,"latitude":20.9826835,"distance":1972.473},{"id":"52","name":"Vũ Thị Mai","address":"29 Nguyễn An Ninh, phường Tương Mai, quận Hoàng Mai, Hà Nội","longitude":105.8599944,"latitude":20.9753144,"distance":2026.705},{"id":"56","name":"Trần Thị Kim Oanh","address":"4/36 Phố Vọng, phường Đồng Tâm, quận Hai Bà Trưng, Hà Nội","longitude":105.8442336,"latitude":20.993103,"distance":560.899},{"id":"83","name":"Nguyễn Thị Hương","address":"Số 6, ngách 72/51, đường Ngọc Hồi, Hoàng Mai, Hà Nội","longitude":105.849008716261,"latitude":20.97938577198791,"distance":1191.491},{"id":"84","name":"Nguyễn Hoài Nam","address":"Số 1, ngách 148/32, đường Định Công Thượng, Hoàng Mai, Hà Nội","longitude":105.832976548458,"latitude":20.97715259034237,"distance":2165.925},{"id":"86","name":"Vũ Thị Ngọc","address":"Số 25, ngõ 165, Định Công Hạ, Hoàng Mai, Hà Nội","longitude":105.836375033243,"latitude":20.97684743851783,"distance":1942.203},{"id":"87","name":"Nguyễn Thanh Tùng","address":"Số 22, ngõ 258, phố Định Công, Hoàng Mai, Hà Nội","longitude":105.832986166764,"latitude":20.978712187042326,"distance":2054.012},{"id":"93","name":"Phạm Thanh Bình","address":"Số 37, ngõ 58, Phố Vọng, Hai Bà Trưng, Hà Nội","longitude":105.84809821475,"latitude":20.999792359337576,"distance":1079.6},{"id":"96","name":"Nguyễn Thị Hồng Vân","address":"Số nhà 60, ngõ 15, Phố Vọng, Hai Bà Trưng, Hà Nội","longitude":105.851800844291,"latitude":20.996684171619364,"distance":806.01}]},{"id":"7","longitude":105.81653309842952,"latitude":21.005155721165668,"address":"","distanceToTarget":3020.457,"clusterDataList":[{"id":"10","name":"Tuyết Ngân Vương","address":"64 Nguyễn Trãi, Thanh Xuân, Hà Nội","longitude":105.8141240628,"latitude":21.004989829364796,"distance":250.751},{"id":"40","name":"Phạm Văn Anh","address":"15 Lê Văn Thiêm, Thanh Xuân, Hà Nội","longitude":105.813811137371,"latitude":21.00530366075462,"distance":283.034},{"id":"66","name":"Phan Thị Hương Giang","address":"Số 16, ngách 53/32, phố Đặng Văn Ngữ, Đống Đa, Hà Nội","longitude":105.810480154391,"latitude":21.00279944742655,"distance":680.774},{"id":"73","name":"Đỗ Thị Ngọc Ánh","address":"Số 29, ngõ 117, Thái Hà, Đống Đa, Hà Nội","longitude":105.827717039156,"latitude":21.007529947116705,"distance":1190.588}]},{"id":"8","longitude":105.80492643184981,"latitude":20.992982049369015,"address":"","distanceToTarget":4432.996,"clusterDataList":[{"id":"15","name":"Quỳnh Anh Lý","address":"102 Nguyễn Trãi, Thanh Xuân, Hà Nội","longitude":105.81500733,"latitude":20.99535809979263,"distance":1079.368},{"id":"22","name":"Trần Nhất Minh","address":"93/72 Hoàng Văn Thái, Khương Trung, Thanh Xuân, Hà Nội","longitude":105.812151394309,"latitude":20.999703288984325,"distance":1058.827},{"id":"28","name":"Trần Ngọc Ánh","address":"11 Ngõ Hòa Bình 4, Hòa Bình, Thanh Xuân, Hà Nội","longitude":105.802778452292,"latitude":20.99746076823468,"distance":545.654},{"id":"36","name":"Vũ Thị Thanh","address":"212 Quang Trung, phường Trần Hưng Đạo","longitude":105.7668447,"latitude":20.9658777,"distance":4971.5},{"id":"53","name":"Phạm Quang Huy","address":"1B, ngõ 155 Trường Chinh, phường Khương Trung, quận Thanh Xuân, Hà Nội","longitude":105.8179761,"latitude":20.9968435,"distance":1421.14},{"id":"55","name":"Nguyễn Văn Phúc","address":"11 Lê Văn Thiêm, phường Nhân Chính, quận Thanh Xuân, Hà Nội","longitude":105.8027965,"latitude":20.9952272,"distance":333.492},{"id":"64","name":"Bùi Thị Minh Hằng","address":"Số 8, ngõ 25, phố Đặng Văn Ngữ, Đống Đa, Hà Nội","longitude":105.808473487496,"latitude":21.001449032674383,"distance":1010.932},{"id":"71","name":"Trần Thị Hiền","address":"Số 12, ngõ 108, Cù Chính Lan, Thanh Xuân, Hà Nội","longitude":105.803326413617,"latitude":20.99165618041645,"distance":222.096},{"id":"82","name":"Đặng Văn Tiến","address":"Số 12, ngách 53/4, đường Khương Đình, Thanh Xuân, Hà Nội","longitude":105.809853040879,"latitude":20.99712052823861,"distance":687.997},{"id":"85","name":"Trần Anh Tú","address":"Số 15, ngõ 70, phố Bùi Xương Trạch, Khương Đình, Thanh Xuân, Hà Nội","longitude":105.809130038331,"latitude":20.99657032125277,"distance":591.299},{"id":"88","name":"Nguyễn Thị Tuyết","address":"Số 31, ngách 22/63, phố Vương Thừa Vũ, Thanh Xuân, Hà Nội","longitude":105.814497305107,"latitude":20.99950717942204,"distance":1230.294},{"id":"92","name":"Nguyễn Trung Hiếu","address":"Số 25, ngách 25, ngõ 82, Nguyễn Phúc Lai, Hà Đông, Hà Nội","longitude":105.774787450121,"latitude":20.972450509741854,"distance":3873.396},{"id":"94","name":"Vũ Đức Thuận","address":"Số 27, ngõ 109, Trường Chinh, Thanh Xuân, Hà Nội","longitude":105.819603259757,"latitude":20.994374747818565,"distance":1531.507},{"id":"97","name":"Nguyễn Thị Thu Hiền","address":"Số 6, ngách 22, ngõ 168, Kim Giang, Thanh Xuân, Hà Nội","longitude":105.810963135141,"latitude":20.993662748840926,"distance":631.249},{"id":"107","name":"Bùi Thị Thu","address":"Số 3 ngõ 110 Trường Chinh, Khương Mai, Thanh Xuân, Hà Nội","longitude":105.805707870697,"latitude":20.997468935118015,"distance":505.471}]},{"id":"9","longitude":105.81241178996142,"latitude":21.016617176070003,"address":"","distanceToTarget":3680.659,"clusterDataList":[{"id":"18","name":"Hoài Phương Ngô","address":"30 Lương Định Của, Đống Đa, Hà Nội","longitude":105.811295704,"latitude":21.02112194283696,"distance":514.129},{"id":"30","name":"Lê Thị Mai","address":"172 Thái Thịnh, phường Trung Liệt","longitude":105.812751,"latitude":21.014346,"distance":254.986},{"id":"58","name":"Trần Thị Ngọc Hà","address":"Số 19, Ngõ 95, Chùa Láng, Đống Đa, Hà Nội","longitude":105.808039933772,"latitude":21.02003446015484,"distance":591.868},{"id":"63","name":"Phùng Đình Thúc","address":"Số 20, ngõ 95, Chùa Bộc, Đống Đa, Hà Nội","longitude":105.811221768447,"latitude":21.01529828306313,"distance":191.743},{"id":"75","name":"Lê Thị Minh Huyền","address":"Số 35, ngõ 145, Nguyễn Chí Thanh, Đống Đa, Hà Nội","longitude":105.81022,"latitude":21.020021,"distance":441.599},{"id":"77","name":"Ngô Đức Kế","address":"Số nhà 9, ngõ 47, Láng Hạ, Đống Đa, Hà Nội","longitude":105.8093612,"latitude":21.0193522,"distance":439.035},{"id":"78","name":"Vũ Ngọc Phan","address":"Số nhà 39, ngách 46, ngõ 68, Nguyễn Chí Thanh, Hà Nội","longitude":105.8122858,"latitude":21.0144747,"distance":238.591},{"id":"79","name":"Trần Anh Tú","address":"Số 24, ngách 53, ngõ 96 Nguyễn Chí Thanh, Quận Đống Đa, Hà Nội","longitude":105.811644197418,"latitude":21.019013940078164,"distance":278.163},{"id":"81","name":"Nguyễn Thị Tuyết Anh","address":"Số 45, ngõ 43, Đặng Văn Ngữ, Đống Đa, Hà Nội","longitude":105.81701360561,"latitude":21.012858830836,"distance":634.674},{"id":"89","name":"Vũ Thị Hồng Nhung","address":"Số nhà 33, ngách 29, ngõ 98, Chùa Bộc, Đống Đa, Hà Nội","longitude":105.818357117482,"latitude":21.012022544091828,"distance":801.16},{"id":"91","name":"Nguyễn Đức Hoàn","address":"Số nhà 14, ngõ 73, Pháo Đài Láng, Đống Đa, Hà Nội","longitude":105.810478997798,"latitude":21.01639227356974,"distance":202.172},{"id":"105","name":"Phạm Văn Tùng","address":"Số 61 ngõ 72 phố Chùa Bộc, Quang Trung, Đống Đa, Hà Nội","longitude":105.81627215501,"latitude":21.014469938209412,"distance":466.442}]},{"id":"10","longitude":105.81926905779162,"latitude":21.018010314903528,"address":"","distanceToTarget":3093.223,"clusterDataList":[{"id":"7","name":"Lê Thị Lan","address":"Số nhà 34, ngõ 163, Tây Sơn, Đống Đa, Hà Nội","longitude":105.812927288679,"latitude":21.02040270485661,"distance":709.973},{"id":"35","name":"Đặng Thị Ngọc","address":"51 Hào Nam, phường Ô Chợ Dừa","longitude":105.824139,"latitude":21.020755,"distance":590.469},{"id":"39","name":"Trần Ngọc Hân","address":"12 Nguyễn Chí Thanh, Đống Đa, Hà Nội","longitude":105.818744647651,"latitude":21.0201381310001,"distance":242.783},{"id":"50","name":"Nguyễn Bá Hải","address":"45 Tôn Thất Tùng, phường Khương Thượng, quận Đống Đa, Hà Nội","longitude":105.8212107,"latitude":21.0207743,"distance":367.525},{"id":"59","name":"Lê Thị Ngọc Diệp","address":"Số 27, Ngõ 87, Tôn Thất Tùng, Đống Đa, Hà Nội","longitude":105.816200300145,"latitude":21.018232321059706,"distance":319.482},{"id":"62","name":" Đỗ Quang Huy","address":" Số nhà 5, ngõ 2, Tôn Thất Tùng, Đống Đa, Hà Nội","longitude":105.822116184181,"latitude":21.012834935692705,"distance":646.923},{"id":"68","name":"Lê Thị Hương","address":"Số 7, ngõ 69, Hoàng Ngọc Phách, Đống Đa, Hà Nội","longitude":105.818056302414,"latitude":21.01749698415908,"distance":138.217},{"id":"90","name":"Nguyễn Văn Nam","address":" Số 60, ngõ 121, Chùa Bộc, Đống Đa, Hà Nội","longitude":105.820758039263,"latitude":21.01344814246003,"distance":530.312}]},{"id":"11","longitude":105.798718439471,"latitude":21.00681656887337,"address":"","distanceToTarget":4873.682,"clusterDataList":[{"id":"9","name":"Hoàng Văn Nam","address":"Số nhà 34, ngõ 44, phố Lê Văn Thiêm, Nhân Chính, Thanh Xuân, Hà Nội","longitude":105.801562186119,"latitude":21.005800856669975,"distance":316.063},{"id":"72","name":"Phạm Đức Anh","address":"Số 46, ngõ 109, Trần Duy Hưng, Trung Hòa, Cầu Giấy, Hà Nội","longitude":105.795874692823,"latitude":21.007832281076766,"distance":316.062}]},{"id":"12","longitude":105.8091745272882,"latitude":21.01212659844313,"address":"","distanceToTarget":3865.421,"clusterDataList":[{"id":"1","name":"Nguyễn Hữu Ánh","address":"Số nhà 45, ngõ 120, Láng Hạ, Đống Đa, Hà Nội","longitude":105.81032244281,"latitude":21.013289547968125,"distance":175.84},{"id":"32","name":"Nguyễn Minh Hiền","address":"215 Tây Sơn, phường Trung Liệt","longitude":105.80996,"latitude":21.00915,"distance":340.877},{"id":"34","name":"Trần Minh Hải","address":"10 Nguyễn Thị Định, phường Trung Hòa","longitude":105.8030341,"latitude":21.0131391,"distance":647.247},{"id":"49","name":"Phạm Minh Anh","address":"79 Ngõ 97 Thái Hà, phường Trung Liệt, quận Đống Đa, Hà Nội","longitude":105.8108511,"latitude":21.0124214,"distance":177.09},{"id":"54","name":"Lê Văn Hùng","address":"47 Đặng Tiến Đông, phường Trung Liệt, quận Đống Đa, Hà Nội","longitude":105.8117402,"latitude":21.0121266,"distance":266.319},{"id":"61","name":"Nguyễn Thị Dung","address":"Số 19, Ngõ 172, Nguyễn Lương Bằng, Đống Đa, Hà Nội","longitude":105.803247824377,"latitude":21.013684654938416,"distance":639.124},{"id":"65","name":"Vũ Minh Đức","address":"Số 56, ngõ 167, phố Thái Hà, Trung Liệt, Đống Đa, Hà Nội","longitude":105.811809207352,"latitude":21.01231114564426,"distance":274.251},{"id":"69","name":"Phạm Văn Minh","address":"Số 11, ngõ 83, Láng Hạ, Đống Đa, Hà Nội","longitude":105.802664259342,"latitude":21.01257754591848,"distance":677.629},{"id":"70","name":"Đào Hải Nam","address":"Số 38, ngõ 44, Láng Hạ, Đống Đa, Hà Nội","longitude":105.809506962479,"latitude":21.013069753135053,"distance":110.405},{"id":"74","name":"Đỗ Thị Luyến","address":"Số nhà 30, ngách 47, ngõ 76, Đường Láng Hạ, Đống Đa, Hà Nội","longitude":105.809925,"latitude":21.011086,"distance":139.489},{"id":"80","name":"Nguyễn Huy Hoàng","address":"Số 5, ngõ 114, đường Láng Hạ, Đống Đa, Hà Nội","longitude":105.80706771439,"latitude":21.009689373053,"distance":348.239},{"id":"99","name":"Nguyễn Xuân Hải","address":"Số 22 ngõ 121 Thái Hà, Trung Liệt, Đống Đa, Hà Nội","longitude":105.812697613401,"latitude":21.01231044860382,"distance":366.27},{"id":"104","name":"Lê Văn Cường","address":"Số 15, ngách 150/6, phố Tây Sơn, Đống Đa, Hà Nội","longitude":105.812938396877,"latitude":21.012620580974225,"distance":394.535},{"id":"106","name":"Nguyễn Thị Thùy","address":"Số 12, ngõ 121 Thái Hà, Trung Liệt, Đống Đa, Hà Nội","longitude":105.812678561007,"latitude":21.01229622796845,"distance":364.211}]},{"id":"13","longitude":105.8133662799324,"latitude":21.00760639644211,"address":"","distanceToTarget":3361.29,"clusterDataList":[{"id":"11","name":"Trúc Mai Lâm","address":"12 Ngõ 87 Láng Hạ, Đống Đa, Hà Nội","longitude":105.812843463,"latitude":21.008847514699834,"distance":148.293},{"id":"67","name":"Nguyễn Thị Mai","address":"Số 21, ngách 56/1, ngõ 37, Nguyên Hồng, Đống Đa, Hà Nội","longitude":105.809322585623,"latitude":21.00564046424304,"distance":473.266},{"id":"95","name":"Phạm Xuân Đạt","address":"Số nhà 38, ngõ 145, Nguyễn Lương Bằng, Đống Đa, Hà Nội","longitude":105.813526465217,"latitude":21.00652789299757,"distance":121.071},{"id":"100","name":"Trần Thị Thanh","address":"Số 31, ngách 21, ngõ 77 Láng Hạ, Đống Đa, Hà Nội","longitude":105.811568303654,"latitude":21.008193779143696,"distance":197.735},{"id":"102","name":"Nguyễn Thị Ngọc","address":"Số 15, ngõ 40, phố Nguyên Hồng, Đống Đa, Hà Nội","longitude":105.819570582168,"latitude":21.00882233112641,"distance":658.069}]}]